City,Country,Population,Latitude,Longitude
Tokyo,Japan,37000000,35.6762,139.6503
Paris,France,2165423,48.8566,2.3522
London,United Kingdom,8900000,51.5074,-0.1278
Berlin,Germany,3645000,52.5200,13.4050
Madrid,Spain,3223000,40.4168,-3.7038
Amsterdam,Netherlands,873555,52.3676,4.9041
Dublin,Ireland,1173000,53.3498,-6.2603
Rome,Italy,2761477,41.9028,12.4964
